[
	{
	  "id": 0,
	  "title": "Cool white and green office",
	  "picture": "images/green-office.jpg",
	  "type": "Office Space",
	  "address": "42 example st",
	  "facilities": "Electricity, Wifi, Meeting table and 8 chairs, bathroom",
	  "price": 0.05,
	  "surface": "74 sqm",
	  "lat": -37.813628,
	  "lng": 144.963058
	},
	{
	  "id": 1,
	  "title": "Modern CBD office space",
	  "picture": "images/ragged-edge-london-office.jpg",
	  "type": "Office Space",
	  "address": "London CBD",
	  "facilities": "Electricity, Wifi, Meeting table and 8 chairs, bathroom",
	  "price": 0.004,
	  "surface": "120 sqm",
	  "lat": -37.813628,
	  "lng": 144.963058
	},
	{
	  "id": 2,
	  "title": "Smart bike dock",
	  "picture": "images/bike-dock.jpg",
	  "type": "Bike rack",
	  "address": "300 Swanston street",
	  "facilities": "Secured Lock",
	  "price": 0.02,
	  "surface": "N/A",
	  "lat": -37.192,
	  "lng": 144.122
	},
	{
	  "id": 3,
	  "title": "Parking spot in secure city car park",
	  "picture": "images/parking-spot.jpg",
	  "type": "Car Park",
	  "address": "Bay 4, 42 Franklin street, Melbourne",
	  "facilities": "24h security",
	  "price": 0.005,
	  "surface": "N/A",
	  "lat": -38.22,
	  "lng": 145.123
	},
	{
	  "id": 4,
	  "title": "Modern appartment in Southbank",
	  "picture": "images/modern-appartment.jpg",
	  "type": "Accommodation",
	  "address": "Southside appartments",
	  "facilities": "Swimming pool, white goods, view on the Yarra, NBN ready",
	  "price": 0.05,
	  "surface": "40 sqm",
	  "lat": -36.230,
	  "lng": 144.0233
	},
	{
	  "id": 5,
	  "title": "Small Carlton appartment",
	  "picture": "images/small-appartment.jpg",
	  "type": "Accommodation",
	  "address": "315 Rathdown street, Carlton",
	  "facilities": "Fully furnished, water, electricity, wifi",
	  "price": 0.05,
	  "surface": "40 sqm",
	  "lat": -36.230,
	  "lng": 144.0233
	},
	  {
	  "id": 6,
	  "title": "Karaoke Bar for hire",
	  "picture": "images/event-venue.jpg",
	  "type": "Bar",
	  "address": "Southbank, Melbourne",
	  "facilities": "Sound system, karaoke system",
	  "price": 0.01,
	  "surface": "70 sqm",
	  "lat": -37.1400,
	  "lng": 144.566
  },
  {
	  "id": 7,
	  "title": "Open dance venue/ Event Space",
	  "picture": "images/best-venues-alto-event-space-01.jpg",
	  "type": "Event Space",
	  "address": "South Yarra, Melbourne",
	  "facilities": "Bar, podium, seats 35, sound system, catering available",
	  "price": 0.5,
	  "surface": "200 sqm",
	  "lat": -38.1400,
	  "lng": 146.566
  },
  {
	  "id": 8,
	  "title": "Yoga Studio",
	  "picture": "images/pranamaya-yoga-studio.jpg",
	  "type": "Gym/ Athletics",
	  "address": "Sydney, Australia",
	  "facilities": "Pillows, Yoga mats, change rooms, shower",
	  "price": 0.5,
	  "surface": "65 sqm",
	  "lat": -38.23,
	  "lng": 144.00
  },
  {
	  "id": 9,
	  "title": "Car Park",
	  "picture": "images/space-body.jpg",
	  "type": "Car Park",
	  "address": "Fitzroy, Melbourne",
	  "facilities": "Secured car park",
	  "price": 0.09,
	  "surface": "65 sqm",
	  "lat": -38.6,
	  "lng": 144.6788
  },
  {
	  "id": 10,
	  "title": "Storage Space",
	  "picture": "images/storage.jpg",
	  "type": "Car Park",
	  "address": "Fitzroy, Melbourne",
	  "facilities": "Metal door, easy access from highway",
	  "price": 0.001,
	  "surface": "25 m3",
	  "lat": -37.46,
	  "lng": 144.688
  }
  ]