[
  {
    "id": 0,
    "title": "Cool white and green office",
    "picture": "images/green-office.jpg",
    "type": "Office Space",
    "address": "42 example st",
    "surface": "74 sqm",
	"lat": 41.23,
	"lng": 197.120
  },
  {
    "id": 1,
    "title": "Modern CBD office space",
    "picture": "images/ragged-edge-london-office.jpg",
    "type": "Office Space",
    "address": "London CBD",
    "surface": "120 sqm",
	"lat": 111.54,
	"lng": 359.20
  },
  {
    "id": 2,
    "title": "Smart bike dock",
    "picture": "images/bike-dock.jpg",
    "type": "Bike rack",
    "address": "300 Swanston street",
    "surface": "N/A",
	"lat": 347.192,
	"lng": 541.122
  },
  {
    "id": 3,
    "title": "Parking spot in secure city car park",
    "picture": "images/parking-spot.jpg",
    "type": "Bike rack",
    "address": "Bay 4, 42 Franklin street, Melbourne",
    "surface": "N/A",
	"lat": 341.22,
	"lng": 349.123
  },
  {
    "id": 5,
    "title": "Small Carlton appartment",
    "picture": "images/small-appartment.jpg",
    "type": "Accommodation",
    "address": "315 Rathdown street, Carlton",
    "surface": "40 sqm",
	"lat": 45.230,
	"lng": 23.0233
  },
    {
    "id": 6,
    "title": "Karaoke Bar for hire",
    "picture": "images/event-venue.jpg",
    "type": "Bar",
    "address": "Southbank, Melbourne",
    "surface": "70 sqm",
	"lat": -37.1400,
	"lng": 234.566
},
{
	"id": 7,
	"title": "Open dance venue/ Event Space",
	"picture": "images/best-venues-alto-event-space-01.jpg",
	"type": "Event Space",
	"address": "South Yarra, Melbourne",
	"surface": "90 sqm",
	"lat": -38.1400,
	"lng": 234.566
},
{
	"id": 8,
	"title": "Yoga Studio",
	"picture": "images/pranamaya-yoga-studio.jpg",
	"type": "Gym/ Athletics",
	"address": "Sydney, Australia",
	"surface": "65 sqm",
	"lat": -138.23,
	"lng": 154.566
},
{
	"id": 9,
	"title": "Car Park",
	"picture": "images/space-body.jpg",
	"type": "Car Park",
	"address": "Fitzroy, Melbourne",
	"surface": "65 sqm",
	"lat": -138.46,
	"lng": 154.6788
},
{
	"id": 10,
	"title": "Storage Space",
	"picture": "images/storage.jpg",
	"type": "Car Park",
	"address": "Fitzroy, Melbourne",
	"surface": "25 m3",
	"lat": -37.46,
	"lng": 144.688
}
]